ID@000&
ID@000&
000:$GPRMC,023543.00,A,2308.28715,N,11322.09875,E,0.195,,240213,,,A*78
quit$000&
ID@1&
1:gps$
ID@123&

123:ÄãºÃ

quit$123&
ID@1&

1:00000op

ID@000&

$GPRMC,,V,,,,,,,,,,N*53

ID@1&

1:00000op

$GPRMC,,V,,,,,,,,,,N*53

000:00000o
quit$1&

$GPRMC,,V,,,,,,,,,,N*53

$GPRMC,,V,,,,,,,,,,N*53

$GPRMC,,V,,,,,,,,,,N*53

$GPRMC,,V,,,,,,,,,,N*53

$GPRMC,,V,,,,,,,,,,N*53

$GPRMC,,V,,,,,,,,,,N*53

$GPRMC,,V,,,,,,,,,,N*53

$GPRMC,,V,,,,,,,,,,N*53

$GPRMC,,V,,,,,,,,,,N*53

$GPRMC,,V,,,,,,,,,,N*53

ID@1&

1:00000cl

000:00000o
quit$1&

$GPRMC,,V,,,,,,,,,,N*53

ID@1&

1:00000op

000:00000o
quit$1&

$GPRMC,,V,,,,,,,,,,N*53

$GPRMC,,V,,,,,,,,,,N*53

$GPRMC,,V,,,,,,,,,,N*53

$GPRMC,,V,,,,,,,,,,N*53

$GPRMC,,V,,,,,,,,,,N*53

$GPRMC,,V,,,,,,,,,,N*53

$GPRMC,,V,,,,,,,,,,N*53

$GPRMC,,V,,,,,,,,,,N*53

$GPRMC,,V,,,,,,,,,,N*53

$GPRMC,,V,,,,,,,,,,N*53

$GPRMC,,V,,,,,,,,,,N*53

$GPRMC,,V,,,,,,,,,,N*53

$GPRMC,,V,,,,,,,,,,N*53

$GPRMC,,V,,,,,,,,,,N*53

$GPRMC,,V,,,,,,,,,,N*53

$GPRMC,,V,,,,,,,,,,N*53

$GPRMC,,V,,,,,,,,,,N*53

$GPRMC,,V,,,,,,,,,,N*53

$GPRMC,,V,,,,,,,,,,N*53

$GPRMC,,V,,,,,,,,,,N*53

$GPRMC,,V,,,,,,,,,,N*53

$GPRMC,,V,,,,,,,,,,N*53

$GPRMC,,V,,,,,,,,,,N*53

$GPRMC,,V,,,,,,,,,,N*53

$GPRMC,,V,,,,,,,,,,N*53

$GPRMC,,V,,,,,,,,,,N*53

$GPRMC,,V,,,,,,,,,,N*53

$GPRMC,,V,,,,,,,,,,N*53

$GPRMC,,V,,,,,,,,,,N*53

$GPRMC,,V,,,,,,,,,,N*53

$GPRMC,,V,,,,,,,,,,N*53

$GPRMC,,V,,,,,,,,,,N*53

$GPRMC,,V,,,,,,,,,,N*53

$GPRMC,,V,,,,,,,,,,N*53

$GPRMC,,V,,,,,,,,,,N*53

$GPRMC,,V,,,,,,,,,,N*53

$GPRMC,,V,,,,,,,,,,N*53

ID@1&

1:00000cl

ID@1&

1:00000cl


ID@18721805652&

18721805652:00000op

quit$18721805652&

ID@18721805652&

18721805652:00000cl

quit$18721805652&

ID@18721805652&

18721805652:00000op

quit$18721805652&

ID@18721805652&

18721805652:00000cl

quit$18721805652&

ID@1&
gps$1&
ID@123&
gps$123&
ID@000&

000:00000o
000:00000o
000:00000o
000:00000o
ID@000&

ID@000&

000:00000o
000:00000o
000:00000o
000:00000o
ID@123&
gps$123&
gps$123&
ID@13&
gps$13&
$GPRMC,023543.00,A,2308.28715,N,11322.09875,E,0.195,,240213,,,A*78
gps$13&
$GPRMC,023543.00,A,2308.28715,N,11322.09875,E,0.195,,240213,,,A*78
$GPRMC,023543.00,A,2308.28715,N,11322.09875,E,0.195,,240213,,,A*78
ID@111&
gps$111&
ID@123&
$GPRMC,023543.00,A,2308.28715,N,11322.09875,E,0.195,,240213,,,A*78
gps$123&
ID@000&

$GPRMC,,V,,,,,,,,,,N*53

ID@18721805652&

18721805652:00000op

ID@000&

$GPRMC,,V,,,,,,,,,,N*53

ID@18721805652&

18721805652:00000op

000:00000o
quit$18721805652&

ID@18721805652&

18721805652:00000cl

000:00000o
quit$18721805652&

$GPRMC,,V,,,,,,,,,,N*53

ID@18717962102&

18717962102:00000op

ID@000&

$GPRMC,,V,,,,,,,,,,N*53

ID@18717962102&

18717962102:00000op

000:00000o
quit$18717962102&


000:00000o
$GPRMC,,V,,,,,,,,,,N*53

ID@18721805652&

18721805652:00000op

000:00000o
quit$18721805652&

ID@18721805652&

18721805652:00000cl

000:00000o
quit$18721805652&

$GPRMC,,V,,,,,,,,,,N*53

ID@18717962102&password@12345678&


$GPRMC,,V,,,,,,,,,,N*53

$GPRMC,,V,,,,,,,,,,N*53

ID@18717962102&
##$18717962102:00000op

ID@000&

$GPRMC,,V,,,,,,,,,,N*53

ID@18717962102&
##$18717962102:00000op

$GPRMC,,V,,,,,,,,,,N*53

ID@18717962102&password@1234578&



ID@123&

gps$123&

quit$123&
ID@123&
123:00000c
quit$123&
ID@1368175105&
1368175105:00000cl
ID@00000&
1368175105:00000op
quit$00000&
quit$1368175105&
ID@123&
123:bkop13681751056$00000op
123:bkop13681751056$00000op
quit$123&
ID@123&
ID@123&
bkop13681751056$00000op
bkop13681751056$00000op
bkop13681751056$00000op
bkop13681751056$00001op
bkop13681751056$00001op
bkop13681751056$00001op
bkop13681751056$00001op
bkop13681751056$00001op
bkop13681751056$00001op
bkop13681751056$00001op
bkop13681751056$00001op
bkop13681751056$00001op
bkcl13681751056$00001cl
bkop13681751056$00001op
bkcl13681751056$00001cl
bkop13681751056$00001op
bkop13681751056$00001op
bkop13681751056$00001op
bkop13681751056$00001op
bkop13681751056$00001op
bkop13681751056$00001op
bkop13681751056$00001op
bkop13681751056$00001op
bkop13681751056$00001op
bkop13681751056$00001op
bkcl13681751056$00001cl
phrg18018673252$sarah703@foxmail.com$China$Shanghai$
phrg18018673252$sarah703@foxmail.com$China$Shanghai$
bkop13681751056$00001op
bkcl13681751056$00001cl
bkop13681751056$00001op
bkcl13681751056$00001cl
phrg13681751056$361655243@qq.com$China$Shanghai$
phrg13661523028$yanghui70@163.comm$China$Shanghai$
